City ID,City,Country,Lat,Lng,Temperature,Humidity,Clouds,Wind Speed
4030556,Rikitea,PF,-23.1203,-134.9692,73.36,71,10,10.56
4946620,Palmer,US,42.1584,-72.3287,72.43,55,40,1.01
3361934,Saldanha,ZA,-33.0117,17.9442,60.85,91,100,8.93
3466704,Castro,BR,-24.7911,-50.0119,63.82,80,100,6.51
3985710,Cabo San Lucas,MX,22.8909,-109.9124,84.18,76,1,1.99
546105,Nikolskoye,RU,59.7035,30.7861,64.29,99,37,5.12
2038650,Anda,CN,46.4,125.3167,47.3,92,0,7.31
3355672,Lüderitz,NA,-26.6481,15.1594,60.21,66,13,8.9
1489499,Togur,RU,58.3631,82.8265,41.83,96,33,6.51
4032243,Vaini,TO,-21.2,-175.2,71.76,94,90,6.91
2063036,Port Lincoln,AU,-34.7333,135.8667,53.55,58,88,18.03
2208248,Kaitangata,NZ,-46.2817,169.8464,42.48,87,92,6.22
1507116,Dudinka,RU,69.4058,86.1778,39.38,90,100,9.17
1529376,Korla,CN,41.7597,86.1469,73.96,29,61,3.29
2020738,Litovko,RU,49.2361,135.1742,47.25,89,73,7.45
2123814,Leningradskiy,RU,69.3833,178.4167,28.15,91,100,19.89
5122534,Jamestown,US,42.097,-79.2353,72.0,57,1,7.0
5554428,Ketchikan,US,55.3422,-131.6461,54.07,100,90,13.8
2134814,Sola,VU,-13.8833,167.55,78.6,77,74,15.57
5106841,Albany,US,42.6001,-73.9662,70.56,66,54,5.12
3366880,Hermanus,ZA,-34.4187,19.2345,59.81,79,97,14.76
2074865,Carnarvon,AU,-24.8667,113.6333,62.67,67,0,17.27
3393922,Nísia Floresta,BR,-6.0911,-35.2086,86.38,49,41,16.08
3577430,Road Town,VG,18.4167,-64.6167,80.62,78,40,19.57
655563,Joutseno,FI,61.118,28.5076,55.76,70,100,8.9
2206939,Bluff,NZ,-46.6,168.3333,46.8,70,100,21.12
2112802,Hasaki,JP,35.7333,140.8333,73.8,89,80,6.44
3369157,Cape Town,ZA,-33.9258,18.4232,60.87,80,75,5.01
6167817,Torbay,CA,47.6666,-52.7314,69.03,70,20,31.07
2120612,Tigil',RU,57.8,158.6667,36.48,76,93,3.98
490554,Sorochinsk,RU,52.4338,53.1583,51.26,55,35,4.85
1797873,Sanbu,CN,33.4594,119.1453,70.56,98,4,6.13
535839,Leshukonskoye,RU,64.8989,45.7622,40.28,86,32,7.05
6170031,Tuktoyaktuk,CA,69.4541,-133.0374,42.8,87,75,14.97
935215,Saint-Philippe,RE,-21.3585,55.7679,68.34,82,48,14.63
3433715,Goya,AR,-29.14,-59.2626,77.43,34,0,9.98
934322,Mahébourg,MU,-20.4081,57.7,71.89,78,40,13.8
6165406,Thompson,CA,55.7435,-97.8558,48.36,66,90,18.41
5697939,North Platte,US,41.1239,-100.7654,78.69,47,1,10.36
161616,Balkanabat,TM,39.5108,54.3671,83.23,19,0,12.1
3874787,Punta Arenas,CL,-53.15,-70.9167,48.31,37,0,14.97
1015776,Bredasdorp,ZA,-34.5322,20.0403,60.12,72,100,9.22
3939168,Huarmey,PE,-10.0681,-78.1522,67.57,75,93,10.67
610298,Beyneu,KZ,45.3167,55.2,73.0,29,0,6.06
1276328,Bhadrāchalam,IN,17.6667,80.8833,75.9,96,100,2.95
5870133,Nome,US,64.5011,-165.4064,42.87,82,90,5.75
3354071,Oranjemund,NA,-28.55,16.4333,58.41,74,17,7.09
2634096,Whitehaven,GB,54.549,-3.5841,61.66,87,94,1.99
6185377,Yellowknife,CA,62.456,-114.3525,46.92,81,75,13.8
3430863,Mar del Plata,AR,-38.0023,-57.5575,55.42,88,90,9.22
1180752,Dajal,PK,29.5577,70.3762,90.01,53,1,10.71
2171099,Codrington,AU,-38.2667,141.9667,45.16,80,68,13.85
1713154,Gasan,PH,13.3237,121.8467,75.11,80,100,9.95
6201424,Mataura,NZ,-46.1927,168.8643,46.47,91,100,4.72
64814,Bandarbeyla,SO,9.4942,50.8122,78.66,78,68,29.39
539233,Kumukh,RU,42.1704,47.1161,56.62,88,29,2.28
2242885,Camabatela,AO,-8.1881,15.375,72.18,61,88,5.77
932987,Tsabong,BW,-26.0217,22.401,72.48,13,0,10.98
4711647,Mineral Wells,US,32.8085,-98.1128,82.92,28,0,12.28
2110227,Butaritari,KI,3.0707,172.7902,82.92,77,56,19.77
962367,Richards Bay,ZA,-28.783,32.0377,69.22,65,0,17.31
1282256,Hithadhoo,MV,-0.6,73.0833,83.39,69,79,7.0
1006984,East London,ZA,-33.0153,27.9116,85.14,39,0,8.05
3932145,Pisco,PE,-13.7,-76.2167,62.65,82,90,8.05
1507390,Dikson,RU,73.5069,80.5464,41.34,86,100,13.04
5282297,Bethel,US,41.3712,-73.414,72.86,61,1,4.0
3628473,San Cristobal,VE,7.7669,-72.225,75.38,71,100,7.02
2090021,Namatanai,PG,-3.6667,152.4333,79.05,80,89,4.92
4031574,Provideniya,RU,64.3833,-173.3,42.1,85,100,12.71
2409914,Bonthe,SL,7.5264,-12.505,81.86,71,83,7.99
1735199,Sungai Besar,MY,3.6746,100.9867,80.65,88,100,2.91
3155152,Gravdal,NO,68.1214,13.5031,48.83,67,44,7.72
1258338,Ratnagiri,IN,16.9833,73.3,79.12,89,50,12.93
2075265,Busselton,AU,-33.65,115.3333,40.05,85,6,7.34
4034551,Faanui,PF,-16.4833,-151.75,77.54,61,18,13.04
2654970,Brae,GB,60.3964,-1.353,53.51,80,100,17.85
5975004,High Level,CA,58.5169,-117.136,48.31,93,75,10.36
1153035,Kathu,TH,7.9178,98.3332,82.22,82,100,11.43
1502862,Kolpashevo,RU,58.3131,82.9089,41.86,96,33,6.31
1786538,Yining,CN,29.0361,114.5636,74.14,93,48,2.37
5762718,Belle Fourche,US,44.6714,-103.8522,70.32,32,84,6.04
3984997,San Quintín,MX,30.4833,-115.95,77.68,70,5,9.33
2022572,Khatanga,RU,71.9667,102.5,45.52,60,13,12.28
3833367,Ushuaia,AR,-54.8,-68.3,44.26,57,40,8.05
2126710,Beringovskiy,RU,63.05,179.3167,37.6,98,100,19.64
2126785,Belaya Gora,RU,68.5333,146.4167,34.38,72,99,6.4
286621,Salalah,OM,17.0151,54.0924,80.69,94,75,5.75
3443061,Chui,UY,-33.6971,-53.4616,62.38,75,42,4.12
964432,Port Alfred,ZA,-33.5906,26.891,77.88,53,12,3.18
3894426,Coyhaique,CL,-45.5752,-72.0662,44.55,81,90,3.44
3440777,Rocha,UY,-34.4833,-54.3333,64.09,71,60,4.21
3444199,Puerto Suárez,BO,-18.95,-57.8,91.96,33,0,8.05
5848280,Kapaa,US,22.0752,-159.319,72.37,70,20,16.11
4035715,Avarua,CK,-21.2078,-159.775,73.45,94,40,5.75
1734705,Kuala Terengganu,MY,5.3302,103.1408,78.75,94,20,2.3
1528998,Yumen,CN,40.2833,97.2,65.34,32,97,13.24
2132606,Samarai,PG,-10.6167,150.6667,78.8,84,96,14.45
2138555,Poum,NC,-20.2333,164.0167,69.6,68,7,10.67
2122493,Omsukchan,RU,62.5333,155.8,25.29,84,22,4.38
1263968,Manali,IN,13.1667,80.2667,87.89,72,100,10.67
5882953,Aklavik,CA,68.2191,-135.0107,46.4,87,75,9.22
5880054,Barrow,US,71.2906,-156.7887,35.62,93,90,9.22
2449893,Tessalit,ML,20.1986,1.0114,107.19,8,53,7.0
2643553,Louth,GB,53.3666,-0.0044,70.84,53,75,12.66
3402648,Carutapera,BR,-1.195,-46.02,85.66,61,72,10.42
6089245,Norman Wells,CA,65.282,-126.8329,51.84,87,90,0.0
2112309,Katsuura,JP,35.1333,140.3,75.31,91,90,8.68
6111862,Port Hardy,CA,50.6996,-127.4199,57.38,94,75,5.75
1214026,Sabang,ID,5.8933,95.3214,81.88,77,100,14.97
1254046,Tura,IN,25.5198,90.2201,76.42,94,80,3.29
3652764,Puerto Ayora,EC,-0.7393,-90.3518,71.55,87,94,8.01
4692856,Galveston,US,29.3669,-94.9669,84.56,67,27,3.0
3372707,Ribeira Grande,PT,38.5167,-28.7,68.4,88,40,14.97
3146487,Raudeberg,NO,61.9875,5.1352,54.95,93,99,3.0
2155415,New Norfolk,AU,-42.7826,147.0587,41.85,75,56,3.0
3450288,Santa Cruz Cabrália,BR,-16.2781,-39.0247,82.63,65,40,16.11
2122090,Pevek,RU,69.7008,170.3133,28.09,78,87,14.43
2122605,Okhotsk,RU,59.3833,143.3,45.57,69,5,3.2
778707,Mehamn,NO,71.0357,27.8492,41.47,75,70,6.93
5942913,Dryden,CA,49.7833,-92.7503,55.69,62,75,21.85
3451138,Rio Grande,BR,-32.035,-52.0986,62.94,76,95,4.43
1687186,Sarangani,PH,5.4033,125.4636,80.46,82,100,10.2
4845585,Westport,US,41.1415,-73.3579,74.46,57,1,1.99
6620339,Karratha,AU,-20.7377,116.8463,74.73,36,2,13.49
2036283,Kuandian,CN,40.7286,124.7847,55.2,94,5,5.03
779622,Havøysund,NO,70.9963,24.6622,45.48,71,56,4.12
609924,Emba,KZ,48.8264,58.1442,54.61,35,0,11.86
6148373,Sioux Lookout,CA,50.1001,-91.917,57.27,58,40,14.97
1513491,Yangi Marg`ilon,UZ,40.4272,71.7189,74.12,28,88,4.61
2318123,Yenagoa,NG,4.9247,6.2642,74.86,95,94,7.58
1791539,Wencheng,CN,33.0559,113.7978,73.27,83,0,3.42
5967988,Gull Lake,CA,50.1001,-108.4847,52.16,73,100,14.36
1486321,Yar-Sale,RU,66.8333,70.8333,42.82,80,100,10.38
2065176,Murray Bridge,AU,-35.1167,139.2667,51.58,70,64,13.31
3698359,Chicama,PE,-7.8447,-79.1469,61.34,70,100,7.63
950709,Swellendam,ZA,-34.0226,20.4417,59.38,83,58,5.97
4944903,Nantucket,US,41.2835,-70.0995,72.39,50,1,14.97
571634,Breytovo,RU,58.2993,37.8617,53.85,92,100,4.88
4726521,San Patricio,US,28.017,-97.5169,86.36,48,4,9.51
3418910,Upernavik,GL,72.7868,-56.1549,26.29,50,49,6.58
1605277,Trat,TH,12.5,102.5,74.23,96,100,2.75
1861280,Itoman,JP,26.1247,127.6694,82.42,89,75,11.5
487928,Novikovo,RU,51.1537,37.8879,68.0,52,94,5.77
1608530,Nakhon Phanom,TH,17.3333,104.4167,75.16,95,100,1.07
2895044,Jena,DE,50.9333,11.5833,68.47,88,54,4.63
2071860,Esperance,AU,-33.8667,121.9,49.84,72,98,10.11
2758325,Gemeente Brielle,NL,51.9,4.15,67.42,87,93,12.55
5557293,Sitka,US,57.0531,-135.33,55.29,88,90,10.36
3832899,Viedma,AR,-40.8135,-62.9967,70.5,38,100,27.0
1855342,Nishihara,JP,26.1842,127.7558,81.68,89,75,11.5
3939761,Hualmay,PE,-11.0964,-77.6139,66.96,73,95,10.45
4020109,Atuona,PF,-9.8,-139.0333,77.76,76,21,17.02
2015179,Tommot,RU,58.9564,126.2925,42.91,90,0,2.53
866062,Iskateley,RU,67.6803,53.1512,39.54,90,100,7.99
2127202,Anadyr,RU,64.75,177.4833,32.5,100,90,20.13
634093,Tornio,FI,65.8481,24.1466,53.62,73,24,3.04
1263532,Margherita,IN,27.2833,95.6833,78.85,81,89,2.01
3831208,Qaanaaq,GL,77.484,-69.3632,23.56,68,10,7.2
2178753,Kirakira,SB,-10.4544,161.9205,77.95,86,53,9.55
7647007,Bariloche,AR,-41.1456,-71.3082,51.55,66,75,8.05
3115739,Narón,ES,43.5167,-8.1528,72.28,66,65,6.55
1701054,Marawi,PH,7.9986,124.2928,69.66,86,100,1.61
2163355,Hobart,AU,-42.8794,147.3294,44.31,77,75,3.0
2108857,Gizo Government Station,SB,-8.103,156.8419,81.0,77,76,7.56
3466165,Cidreira,BR,-30.1811,-50.2056,67.77,61,16,6.69
3372472,Vila Franca do Campo,PT,37.7167,-25.4333,72.01,73,80,17.18
933995,Souillac,MU,-20.5167,57.5167,71.98,78,40,13.8
5855927,Hilo,US,19.7297,-155.09,67.96,84,1,3.44
5380437,Pacific Grove,US,36.6177,-121.9166,58.71,92,75,1.99
921786,Mitsamiouli,KM,-11.3847,43.2844,79.09,61,20,10.36
5877641,Wasilla,US,61.5814,-149.4394,43.2,94,1,0.0
127319,Khorramshahr,IR,30.4397,48.1664,93.16,16,0,4.61
964406,Port Shepstone,ZA,-30.7414,30.455,70.93,77,0,17.0
2027042,Batagay-Alyta,RU,67.8006,130.4114,42.53,60,44,2.17
3919720,Colquechaca,BO,-18.6667,-66.0167,49.01,13,48,6.76
1651810,Airai,TL,-8.9266,125.4092,59.56,87,61,1.19
2662149,Ystad,SE,55.4297,13.8204,69.31,84,47,9.86
2033602,Xiuyan,CN,40.2928,123.2744,57.24,82,0,5.03
2457161,Gao,ML,16.6362,1.637,104.34,16,95,2.59
934479,Grand Gaube,MU,-20.0064,57.6608,71.38,76,27,8.01
314188,Göksun,TR,38.021,36.4973,70.75,57,31,7.74
2156643,Mount Gambier,AU,-37.8333,140.7667,44.51,87,92,10.36
3472473,Alto Araguaia,BR,-17.3147,-53.2153,97.59,17,4,8.68
142000,Bahār,IR,34.9072,48.4414,74.05,16,0,2.82
3469374,Bom Sucesso,BR,-21.0331,-44.7581,92.28,21,53,6.08
4465088,Elizabeth City,US,36.2946,-76.2511,77.68,54,1,4.61
1835848,Seoul,KR,37.5683,126.9778,67.78,88,0,3.44
162158,Baharly,TM,38.4362,57.4316,75.99,22,0,6.89
3421765,Nanortalik,GL,60.1432,-45.2371,43.48,80,100,17.13
2158767,Mareeba,AU,-17.0,145.4333,65.43,93,100,3.53
686090,Asău,RO,46.4333,26.4,70.72,49,80,3.13
6690296,Saint-Joseph,RE,-21.3667,55.6167,67.35,79,29,15.14
290030,Doha,QA,25.2867,51.5333,93.15,73,0,10.36
3526756,Isla Mujeres,MX,21.2311,-86.731,82.45,85,100,10.85
2235194,Bafia,CM,4.75,11.2333,68.23,95,100,12.48
3137469,Sørland,NO,67.667,12.6934,49.28,70,20,10.92
2121025,Srednekolymsk,RU,67.45,153.6833,28.89,77,100,2.75
2662689,Visby,SE,57.6409,18.296,65.98,82,0,6.91
1737714,Limbang,MY,4.75,115.0,80.71,93,99,1.39
509451,Pinyug,RU,60.251,47.7842,45.64,77,100,7.29
4032369,Pangai,TO,-19.8,-174.35,74.61,84,49,17.34
1640660,Gondanglegi,ID,-7.7479,112.0132,75.49,89,99,10.89
654899,Kajaani,FI,64.2273,27.7285,53.65,66,0,2.3
2126199,Cherskiy,RU,68.75,161.3,24.12,83,79,3.22
1560349,Yen Bai,VN,21.7,104.8667,80.19,79,6,1.74
1490256,Talnakh,RU,69.4865,88.3972,39.65,92,96,8.41
2381972,Adrar,MR,20.5022,-10.0711,102.97,20,82,3.36
3662762,Porto Velho,BR,-8.7619,-63.9039,86.05,66,75,3.44
2016307,Solnechnyy,RU,50.7214,136.6319,47.48,96,100,6.71
3837213,San Juan,AR,-31.5375,-68.5364,82.44,10,0,13.47
1819729,Hong Kong,HK,22.2855,114.1577,87.57,86,49,1.01
1488074,Ust'-Tarka,RU,55.5672,75.705,41.49,79,64,7.49
3416888,Grindavik,IS,63.8424,-22.4338,52.27,82,75,9.22
3661980,Tarauacá,BR,-8.1614,-70.7656,96.13,37,31,1.88
81604,Qaryat Sulūq,LY,31.6682,20.2521,90.12,27,0,6.91
2017155,Saskylakh,RU,71.9167,114.0833,48.83,68,72,9.6
2514651,Los Llanos de Aridane,ES,28.6585,-17.9182,76.75,74,75,10.36
1854905,Numata,JP,36.6333,139.05,70.5,93,87,3.6
5969025,Haines Junction,CA,60.7522,-137.5108,33.75,100,100,1.14
2123100,Myaundzha,RU,63.0494,147.1858,28.36,68,10,1.45
1637001,Biak,ID,-0.9131,122.8766,74.82,86,95,0.87
2729907,Longyearbyen,SJ,78.2186,15.6401,33.64,75,0,3.44
2077895,Alice Springs,AU,-23.7,133.8833,56.75,30,0,4.61
3870282,Talcahuano,CL,-36.7167,-73.1167,53.28,94,90,31.07
3388847,São Félix do Xingu,BR,-6.6447,-51.995,102.11,20,5,6.26
777019,Vardø,NO,70.3705,31.1107,43.81,71,90,10.29
577922,Belomorsk,RU,64.5232,34.7668,43.75,84,63,4.76
5847411,Kahului,US,20.8947,-156.47,72.52,81,20,4.61
4013045,Concepción de Buenos Aires,MX,19.9667,-103.2667,62.92,55,25,9.55
3397893,Itacoatiara,BR,-3.1431,-58.4442,95.25,36,15,4.92
4676740,Brownsville,US,25.9018,-97.4975,87.84,66,40,5.99
2335727,Kaduna,NG,10.5222,7.4383,78.46,78,95,8.75
3692072,Santiago de Chuco,PE,-8.15,-78.1833,55.9,67,99,4.65
3836669,San Rafael,AR,-34.6177,-68.3301,69.08,24,37,15.55
2084442,Vanimo,PG,-2.6741,141.3028,77.25,89,29,6.08
5866583,Saint Paul Harbor,US,57.79,-152.4072,38.71,87,1,5.75
1267390,Kavaratti,IN,10.5669,72.642,81.82,83,93,18.28
6145890,Shelburne,CA,44.0787,-80.2041,71.85,50,74,20.76
2122293,Ozernovskiy,RU,51.5,156.5167,48.6,72,58,13.98
1528796,At-Bashi,KG,41.1702,75.8106,55.08,37,52,3.0
1260206,Pāsighāt,IN,28.0667,95.3333,79.21,72,74,3.06
2338660,Yaan,NG,7.3833,8.5667,78.51,86,96,5.75
3456642,Mozarlândia,BR,-14.7447,-50.5706,104.47,12,7,6.98
5742974,North Bend,US,43.4065,-124.2243,56.82,88,1,0.0
463144,Zheshart,RU,62.0731,49.5733,43.84,94,100,4.36
2030065,Mandalgovi,MN,45.7625,106.2708,49.64,80,96,24.56
921900,Dzaoudzi,YT,-12.7887,45.2699,76.89,73,0,4.61
5746545,Portland,US,45.5234,-122.6762,60.62,77,20,1.99
2210554,Sirte,LY,31.2089,16.5887,83.7,70,20,13.42
292968,Abu Dhabi,AE,24.4667,54.3667,93.22,75,0,10.36
2070998,Geraldton,AU,-28.7667,114.6,48.61,87,0,6.91
2101169,Aitape,PG,-3.1374,142.3475,77.32,87,30,7.18
1277793,Bahua,IN,25.85,80.6333,81.79,82,23,6.91
64013,Bosaso,SO,11.2842,49.1816,93.07,46,39,2.53
3576994,Cockburn Town,TC,21.4612,-71.1419,87.76,66,40,11.5
4566022,Loíza,PR,18.4313,-65.8802,87.51,66,40,23.02
161218,Bariadi,TZ,-2.8,33.9833,75.31,45,86,2.66
1259385,Port Blair,IN,11.6667,92.75,81.25,84,83,18.54
2015306,Tiksi,RU,71.6872,128.8694,45.25,55,8,8.46
5952370,Fernie,CA,49.5,-115.0687,55.72,98,100,4.07
5044290,Saint Anthony,US,45.0205,-93.218,73.2,70,1,1.99
3945985,Camaná,PE,-16.6228,-72.7111,64.4,72,58,7.67
2023584,Imeni Poliny Osipenko,RU,52.4201,136.4853,47.84,95,100,11.43
6050066,La Ronge,CA,55.1001,-105.2842,48.45,71,90,3.44
3692464,Sisa,PE,-6.6167,-76.6915,75.72,57,76,2.06
1489656,Teya,RU,60.3778,92.6267,49.46,86,100,8.61
964420,Port Elizabeth,ZA,-33.918,25.5701,62.89,88,75,9.22
2014624,Udachny,RU,66.4167,112.4,44.38,77,57,2.98
3357247,Gobabis,NA,-22.45,18.9667,72.14,16,0,12.01
3480908,La Asuncion,VE,11.0333,-63.8628,87.53,66,92,14.97
2173911,Broken Hill,AU,-31.95,141.4333,56.91,62,0,12.66
1714733,Dingle,PH,10.9995,122.6711,76.23,88,100,2.48
4032420,Neiafu,TO,-18.65,-173.9833,75.88,94,40,0.0
3835869,Santiago del Estero,AR,-27.7951,-64.2615,81.81,17,0,22.15
2644210,Liverpool,GB,53.4106,-2.9779,64.69,78,20,3.0
60019,Eyl,SO,7.9803,49.8164,79.45,76,100,23.91
2612710,Stavnsholt,DK,55.8148,12.4055,67.82,86,66,10.33
2155562,Nelson Bay,AU,-32.7167,152.15,56.16,71,0,9.19
3883457,Lebu,CL,-37.6167,-73.65,53.4,89,100,25.55
462964,Zhiryatino,RU,53.2228,33.7306,68.32,61,47,2.33
3899695,Ancud,CL,-41.8697,-73.8203,51.33,94,100,17.83
5711847,Astoria,US,46.1879,-123.8313,57.49,90,1,1.01
3420846,Qaqortoq,GL,60.7167,-46.0333,57.7,78,100,19.06
1717550,Cayhagan,PH,9.6697,122.4256,78.82,79,100,2.08
5546220,Saint George,US,37.1041,-113.5841,89.15,31,1,1.99
1735106,George Town,MY,5.4112,100.3354,78.84,88,20,3.44
3991622,La Providencia,MX,28.7167,-111.5833,88.38,77,87,1.99
1525798,Balkhash,KZ,46.844,74.9804,64.33,50,38,12.37
5110365,Broome,US,42.2506,-75.833,70.29,60,76,1.99
4047434,Russell,US,32.3502,-85.1999,79.02,65,90,4.61
2990474,Nevers,FR,46.9896,3.159,72.14,63,12,1.66
1487332,Verkhnyaya Inta,RU,65.9811,60.3094,35.73,90,98,8.52
1648082,Boyolangu,ID,-8.1181,111.8935,74.73,93,96,6.24
53372,Oodweyne,SO,9.4092,45.064,84.2,35,82,17.9
1688363,Santa Catalina,PH,9.3337,122.8637,78.98,83,100,2.62
605155,Kiruna,SE,67.8557,20.2251,49.12,53,37,4.61
1295765,Sittwe,MM,20.15,92.9,79.68,89,97,17.72
3449747,Santa Vitória do Palmar,BR,-33.5189,-53.3681,62.2,75,45,3.8
1337619,Ugoofaaru,MV,5.6667,73.0,83.23,69,97,11.18
1496511,Novy Urengoy,RU,66.0833,76.6333,45.73,86,100,8.3
2032201,Bulgan,MN,48.8125,103.5347,43.48,90,81,0.89
2669047,Timrå,SE,62.487,17.3257,53.89,96,90,3.44
5119251,Greece,US,43.2098,-77.6931,75.36,57,51,4.0
6096551,Pangnirtung,CA,66.1451,-65.7125,35.6,87,20,11.5
365742,Torit,SS,4.4133,32.5678,75.81,73,88,4.56
3386213,Touros,BR,-5.1989,-35.4608,86.9,55,9,19.57
2145554,Ulladulla,AU,-35.35,150.4667,61.7,39,0,9.04
2264557,Ponta do Sol,PT,32.6667,-17.1,81.25,70,0,7.45
1056899,Sambava,MG,-14.2667,50.1667,72.19,68,40,16.08
517739,Novouzensk,RU,50.4592,48.1431,60.84,36,0,7.72
2381334,Atar,MR,20.5169,-13.0499,104.4,23,92,6.62
3372964,Lagoa,PT,39.05,-27.9833,69.04,71,99,23.06
5411479,Alamosa,US,37.4695,-105.87,69.82,26,1,4.61
2314705,Kikwit,CD,-5.041,18.8162,86.58,37,75,1.81
1645528,Denpasar,ID,-8.65,115.2167,78.46,94,75,6.91
4470244,Havelock,US,34.8791,-76.9013,78.51,61,0,3.0
1492607,Severnoye,RU,56.3491,78.3619,42.75,85,31,5.32
933416,Manyana,BW,-23.4,21.7167,69.12,19,0,8.43
1272864,Dhārchula,IN,29.85,80.5333,69.91,78,97,3.91
2450173,Taoudenni,ML,22.6783,-3.9836,112.75,7,12,11.36
1252668,Ziro,IN,27.6333,93.8333,58.3,93,85,1.88
498001,Sebezh,RU,56.2955,28.4654,64.94,73,83,3.8
4033557,Tautira,PF,-17.7333,-149.15,69.82,64,39,13.09
6053446,Lewisporte,CA,49.2499,-55.0482,67.48,55,69,18.25
1855540,Naze,JP,28.3667,129.4833,76.59,82,100,3.87
2214432,Nālūt,LY,30.3333,10.85,98.17,12,12,9.86
1538641,Kedrovyy,RU,56.1667,91.8167,46.81,94,99,4.63
5592562,Emmett,US,43.8735,-116.4993,54.07,47,0,2.8
197745,Garissa,KE,-0.4536,39.6401,82.45,45,49,24.99
1106677,Bambous Virieux,MU,-20.3428,57.7575,71.85,78,40,13.8
8010683,Porto Santo,PT,33.072,-16.3415,79.18,69,40,16.11
1650064,Tabat,ID,-2.635,115.2274,73.87,98,86,1.81
2961459,Skibbereen,IE,51.55,-9.2667,62.4,75,100,7.58
3354178,Ongandjera,NA,-17.8833,15.0667,80.22,13,0,8.14
8079926,Labuhan,ID,-6.8844,112.2051,79.07,82,99,5.06
2013639,Verkhnevilyuysk,RU,63.4453,120.3167,45.7,72,70,4.25
3839307,Rawson,AR,-43.3002,-65.1023,60.03,61,100,24.2
3691954,Sechura,PE,-5.5569,-80.8222,69.48,71,95,9.78
3395473,Papara,BR,-3.9839,-38.7273,86.4,32,5,13.31
3622228,Puntarenas,CR,9.9763,-84.8384,87.73,72,91,5.21
5883166,Alberton,CA,46.8168,-64.0654,60.71,60,49,13.87
214575,Kampene,CD,-3.6,26.6667,76.62,66,70,4.03
3595725,Flores,GT,16.9226,-89.8994,86.92,60,100,4.99
898947,Senanga,ZM,-16.1167,23.2667,75.18,24,20,6.71
3457135,Miracatu,BR,-24.2814,-47.4597,74.01,67,100,0.76
1630723,Poso,ID,-1.3959,120.7524,76.03,88,99,2.95
3421982,Maniitsoq,GL,65.4167,-52.9,41.14,39,68,6.91
5861897,Fairbanks,US,64.8378,-147.7164,41.36,92,1,0.0
2136825,Isangel,VU,-19.55,169.2667,68.49,72,18,10.87
648090,Lieksa,FI,63.3167,30.0167,51.85,80,72,3.91
5905393,Bonavista,CA,48.6499,-53.1147,69.8,67,22,21.36
6111696,Port-Cartier,CA,50.0334,-66.8654,64.8,45,55,14.16
2180815,Tuatapere,NZ,-46.1333,167.6833,46.81,86,100,11.14
2757220,Den Helder,NL,52.9599,4.7593,66.11,88,90,13.8
365763,Tonj,SS,7.2737,28.6822,74.12,86,94,0.34
2126123,Chokurdakh,RU,70.6333,147.9167,35.56,66,100,12.12
2630299,Hofn,IS,64.2539,-15.2082,53.29,75,20,6.69
187585,Marsabit,KE,2.3284,37.9899,72.73,38,99,22.59
6127749,Rosetown,CA,51.5501,-108.0014,55.38,58,100,12.66
2647356,Hastings,GB,50.8552,0.5729,66.87,81,55,13.91
5962442,Goderich,CA,43.7501,-81.7165,72.18,64,22,18.41
3489854,Kingston,JM,17.997,-76.7936,90.61,60,20,3.0
3531368,Celestún,MX,20.8667,-90.4,79.21,80,100,10.94
2446796,Bilma,NE,18.6853,12.9164,101.43,14,44,9.24
2119283,Zyryanka,RU,65.75,150.85,32.25,68,67,4.03
3466980,Caravelas,BR,-17.7125,-39.2481,82.11,59,3,10.36
2396518,Port-Gentil,GA,-0.7193,8.7815,73.36,94,90,6.91
3421193,Paamiut,GL,61.994,-49.6678,44.17,94,100,8.79
3382160,Cayenne,GF,4.9333,-52.3333,85.08,72,40,4.0
2020591,Magdagachi,RU,53.45,125.8,45.21,97,73,3.02
4004293,Ixtapa,MX,20.7,-105.2,85.23,74,1,2.3
2032614,Baruun-Urt,MN,46.6806,113.2792,52.9,61,91,10.31
3893629,Coquimbo,CL,-29.9533,-71.3436,56.93,76,90,14.97
508034,Podporozh'ye,RU,60.9112,34.1706,47.68,97,100,4.65
527321,Mezen',RU,65.8522,44.24,39.02,85,69,6.98
2015913,Suntar,RU,62.1444,117.6319,51.19,92,74,1.28
4034496,Fare,PF,-16.7,-151.0167,76.32,74,28,15.14
933726,Tshane,BW,-24.0196,21.8684,70.5,17,0,9.89
2206874,Waipawa,NZ,-41.4122,175.5153,44.06,91,4,5.53
4031742,Egvekinot,RU,66.3167,-179.1667,26.83,77,100,24.85
1150489,Tak,TH,16.5833,98.8333,67.6,97,96,3.6
2016735,Sherlovaya Gora,RU,50.5667,116.25,46.11,92,88,4.09
933726,Hukuntsi,BW,-24.0,21.75,70.88,17,0,10.83
3860443,Comodoro Rivadavia,AR,-45.8667,-67.5,57.06,58,75,8.05
520552,Nizhniy Odes,RU,63.6445,54.856,40.23,95,100,5.84
6144312,Sept-Îles,CA,50.2001,-66.3821,65.12,54,40,13.0
3419842,Sisimiut,GL,66.9395,-53.6735,37.74,31,9,9.62
2038154,Changping,CN,40.2186,116.2197,74.84,95,20,5.59
701104,Milove,UA,49.3787,40.1302,65.16,55,20,9.55
3893726,Constitución,CL,-35.3333,-72.4167,54.41,89,100,24.27
534560,Svirstroy,RU,60.7999,33.7248,48.27,96,100,5.28
7671223,Kloulklubed,PW,7.0419,134.2556,75.7,79,100,9.26
2122389,Ossora,RU,59.2353,163.0719,36.16,84,77,12.62
1626542,Sorong,ID,-0.8833,131.25,78.64,85,99,4.54
2120591,Tilichiki,RU,60.4667,166.1,34.9,73,80,17.76
3671450,Inírida,CO,3.8653,-67.9239,84.43,70,87,2.82
4033375,Tevaitoa,PF,-16.7833,-151.5,77.54,66,29,15.43
2643825,Lochgilphead,GB,56.038,-5.4321,58.95,90,91,10.38
895269,Beitbridge,ZW,-22.2167,30.0,71.38,29,0,9.51
3424607,Tasiilaq,GL,65.6145,-37.6368,39.36,57,79,5.53
2269494,Castro Verde Municipality,PT,37.6983,-8.0858,89.02,32,27,12.82
3361142,Springbok,ZA,-29.6643,17.8865,62.96,27,23,7.02
3393536,Olinda,BR,-8.0089,-34.8553,82.13,57,40,12.66
155921,Liwale,TZ,-9.7667,37.9333,77.2,41,31,7.34
3374083,Bathsheba,BB,13.2167,-59.5167,88.05,80,40,16.11
3471451,Arraial do Cabo,BR,-22.9661,-42.0278,75.06,83,75,11.5
3579925,St. George's,GD,12.0564,-61.7485,87.48,74,20,20.71
2015701,Taksimo,RU,56.3444,114.8794,52.0,89,100,0.85
2312888,Mbanza-Ngungu,CD,-5.25,14.8667,75.6,70,88,4.61
368246,Raja,SS,8.4596,25.678,72.64,91,42,3.78
86049,Jalu,LY,29.0331,21.5482,94.37,21,0,3.69
3423146,Ilulissat,GL,69.2167,-51.1,28.42,34,1,5.75
924572,Nsanje,MW,-16.92,35.262,72.77,59,41,5.17
2094342,Kavieng,PG,-2.5744,150.7967,81.84,76,40,13.11
304183,Muğla Province,TR,37.2303,28.3557,70.47,33,0,6.91
5158275,Huron,US,41.1501,-82.5499,75.61,61,11,18.34
5942798,Drumheller,CA,51.4617,-112.7101,54.23,94,100,3.44
1337617,Muli,MV,2.9167,73.5667,83.73,68,100,7.99
2036581,Jiamusi,CN,46.8333,130.35,47.39,93,91,5.66
2276492,Harper,LR,4.375,-7.7169,82.04,74,50,10.29
1490796,Strezhevoy,RU,60.7333,77.5889,48.18,95,100,5.68
1624041,Ternate,ID,0.8,127.4,77.31,85,100,3.85
2984701,Quimper,FR,48.0,-4.1,68.58,68,0,4.61
4853423,Davenport,US,41.5236,-90.5776,79.48,69,1,5.75
1488920,Turochak,RU,52.2576,87.1224,52.79,64,100,3.62
5710035,West Wendover,US,40.7391,-114.0733,67.21,64,20,4.61
2181625,Te Anau,NZ,-45.4167,167.7167,41.11,97,100,8.39
3933104,Pangoa,PE,-12.1167,-73.0,84.9,48,84,3.47
2121373,Seymchan,RU,62.8833,152.4333,28.54,76,31,3.02
5321473,Winslow,US,35.0242,-110.6974,78.96,34,1,1.01
2194098,Ahipara,NZ,-35.1667,173.1667,51.44,74,42,4.41
2119538,Yelizovo,RU,53.1873,158.3805,30.34,86,0,6.71
1649150,Bengkulu,ID,-3.8004,102.2655,76.41,91,90,6.42
2088163,Popondetta,PG,-8.7537,148.2534,71.67,87,65,3.11
2447513,Arlit,NE,18.7369,7.3853,106.72,10,95,9.06
133964,Garmsār,IR,35.2182,52.3409,86.72,19,0,7.96
1855852,Nakanojōmachi,JP,36.5833,138.85,70.93,93,84,3.53
3470137,Belmonte,BR,-15.8631,-38.8828,82.4,63,17,10.87
1514792,Gazojak,TM,41.1875,61.4036,69.76,15,0,8.88
515805,Oktyabr'skoye,RU,43.0645,44.7417,62.74,82,90,6.71
1278508,Anūppur,IN,23.1,81.6833,75.85,88,97,4.09
3685418,Cunday,CO,4.06,-74.6921,83.35,61,85,4.65
1497543,Nizhnevartovsk,RU,60.9344,76.5531,48.22,100,90,8.95
2173125,Burnie,AU,-41.0667,145.9167,44.82,84,49,10.56
2034995,Shanhecun,CN,44.7,127.2,46.49,96,19,5.91
240210,Birao,CF,10.2849,22.7882,74.95,87,54,1.9
1278969,Along,IN,28.1667,94.7667,75.65,85,98,2.42
2522890,Tortolì,IT,39.9256,9.6572,73.29,64,40,8.05
2324857,Pindiga,NG,9.9833,10.9333,87.1,76,72,5.32
839658,Chernenko,RU,44.365,39.3103,59.97,96,100,2.21
3381428,Iracoubo,GF,5.4802,-53.2011,85.01,66,7,14.14
1789065,Ankang,CN,32.68,109.0172,71.49,88,0,2.95
3391889,Pitimbu,BR,-7.4706,-34.8086,84.79,60,44,14.56
3516171,Barra de Tecoanapa,MX,16.5167,-98.75,84.33,65,85,4.34
469005,Yaransk,RU,57.3033,47.8861,47.8,65,98,6.11
110690,Faya,SA,18.3851,42.4509,75.72,67,81,6.64
2487130,Sidi Ali,DZ,36.0998,0.4206,80.96,46,3,11.25
2127060,Arman',RU,59.7,150.1667,34.07,65,2,7.92
463355,Zheleznodorozhnyy,RU,55.7503,38.0042,61.11,88,100,5.06
5712169,Baker City,US,44.7749,-117.8344,49.71,93,1,0.0
1636544,Manado,ID,1.487,124.8455,75.97,100,40,0.0
1242110,Kalmunai,LK,7.4167,81.8167,82.15,66,98,7.52
2701713,Karlskrona,SE,56.1616,15.5866,68.45,93,77,7.25
6171633,Ucluelet,CA,48.9329,-125.5528,57.51,96,100,7.78
1529102,Ürümqi,CN,43.801,87.6005,63.55,42,0,2.24
3527795,Escárcega,MX,18.6089,-90.7454,76.64,89,100,4.47
293842,Kiryat Gat,IL,31.61,34.7642,78.69,57,3,9.42
1257237,Sārangpur,IN,23.5667,76.4667,74.75,94,75,6.89
1500036,Makushino,RU,55.2103,67.2442,43.99,78,100,13.35
2027296,Aykhal,RU,66.0,111.5,41.92,79,35,3.04
3115824,Muros,ES,42.7762,-9.0603,75.54,69,99,1.9
6255012,Flinders,AU,-34.5833,150.8552,61.93,48,0,10.69
3348078,Kuito,AO,-12.3833,16.9333,71.62,22,92,4.43
1076194,Andilamena,MG,-17.0167,48.5833,58.66,94,72,11.23
513898,Otradnoye,RU,59.7775,30.8181,64.45,99,35,5.21
1495797,Ovsyanka,RU,55.9575,92.5519,49.17,91,95,3.62
2377457,Nouadhibou,MR,20.931,-17.0347,89.58,62,98,9.22
1793424,Taku,CN,39.0211,117.6469,78.76,88,99,15.79
5563839,Fortuna,US,40.5982,-124.1573,59.4,64,1,3.0
5850554,Makakilo City,US,21.3469,-158.0858,71.85,82,90,6.91
102527,Sakakah,SA,29.9697,40.2064,94.57,23,0,10.33
3663516,Mâncio Lima,BR,-7.6142,-72.8958,78.87,78,75,3.44
1529651,Altay,CN,47.8667,88.1167,51.78,27,33,4.83
3675504,Manaure,CO,11.7751,-72.4445,90.48,51,100,23.89
2779229,Friesach,AT,46.9553,14.4058,74.7,75,59,0.74
2079582,Alyangula,AU,-13.8483,136.4192,71.47,88,44,4.61
2017215,Sangar,RU,63.9242,127.4739,43.05,65,90,2.51
2980080,Saint-François,FR,46.4154,3.9054,74.64,53,0,4.61
464790,Zapolyarnyy,RU,69.4154,30.8136,42.08,77,100,7.63
549786,Kholm,RU,59.2667,32.85,56.57,98,53,3.96
1213855,Sibolga,ID,1.7427,98.7792,77.14,90,98,1.48
300075,Suruç,TR,36.9761,38.425,86.2,44,0,21.25
3870243,Taltal,CL,-25.4,-70.4833,59.58,72,42,4.74
1512019,Aksarka,RU,66.5606,67.7975,40.46,86,100,6.17
1847947,Shingū,JP,33.7333,135.9833,77.92,90,88,3.96
3412093,Vestmannaeyjar,IS,63.4427,-20.2734,54.59,82,20,13.8
3351014,Camacupa,AO,-12.0167,17.4833,77.47,18,84,3.76
2147714,Sydney,AU,-33.8679,151.2073,63.79,39,0,3.0
3441890,Departamento de Maldonado,UY,-34.6667,-54.9167,58.39,68,79,5.41
3838759,Rivadavia,AR,-33.1905,-68.4608,66.67,18,7,12.01
1643078,Indramayu,ID,-6.3264,108.32,81.23,72,100,10.96
4513583,Hamilton,US,39.1834,-84.5333,77.09,58,1,3.0
4155996,Fort Myers Beach,US,26.452,-81.9481,89.13,62,1,8.05
1526041,Atasū,KZ,48.6814,71.6433,54.16,86,100,10.98
1152202,Mae Ramat,TH,16.984,98.5166,72.23,100,100,1.88
2129513,Shimokizukuri,JP,40.8061,140.3861,64.47,93,13,5.59
3899539,Antofagasta,CL,-23.65,-70.4,61.88,66,77,8.77
3448903,São João da Barra,BR,-21.6403,-41.0511,78.89,72,100,9.57
5946820,Edson,CA,53.5835,-116.4356,55.51,88,20,5.75
1314759,Lashio,MM,22.9333,97.75,68.56,92,7,0.63
1244926,Hambantota,LK,6.1241,81.1185,80.37,78,88,17.94
2092164,Lorengau,PG,-2.0226,147.2712,80.06,82,92,7.87
1493004,Sargatskoye,RU,55.6101,73.4972,43.41,79,91,11.92
6355222,Yulara,AU,-25.2406,130.9889,58.84,14,0,9.22
3601402,Savannah Bight,HN,16.45,-85.85,91.45,78,100,22.82
107304,Buraidah,SA,26.326,43.975,97.25,13,25,11.39
3393692,Itarema,BR,-2.9248,-39.9167,86.58,59,12,20.22
1052373,Beira,MZ,-19.8436,34.8389,71.38,67,23,9.33
350203,Rosetta,EG,31.4044,30.4164,82.22,67,0,16.71
1496380,Odesskoye,RU,54.2111,72.9651,43.36,68,43,10.74
780687,Berlevåg,NO,70.8578,29.0864,42.49,73,82,10.27
3414079,Olafsvik,IS,64.8945,-23.7142,46.13,67,52,12.91
2278158,Buchanan,LR,5.8808,-10.0467,82.22,71,63,7.61
1176608,Islamkot,PK,24.6997,70.177,80.29,78,100,10.71
2167426,Emerald,AU,-23.5333,148.1667,60.94,77,4,3.44
57000,Hobyo,SO,5.3505,48.5268,78.48,84,33,30.18
1268059,Kanigiri,IN,15.4,79.5167,84.76,61,100,14.23
1608462,Nam Som,TH,17.7704,102.1895,76.32,86,70,3.24
74185,Jiblah,YE,13.9216,44.1467,68.34,71,52,4.5
2126682,Bilibino,RU,68.0546,166.4372,16.74,92,33,6.85
141584,Bāneh,IR,35.9975,45.8853,67.24,25,0,3.29
2108502,Honiara,SB,-9.4333,159.95,76.69,87,33,7.07
2121385,Severo-Kuril'sk,RU,50.6789,156.125,46.2,74,67,10.96
2122783,Katangli,RU,51.7102,143.2326,50.07,89,100,15.26
1524889,Chardara,KZ,41.2547,67.9692,67.48,26,0,9.69
1513990,Gazli,UZ,40.1333,63.45,72.14,12,0,10.18
3412888,Stykkisholmur,IS,65.0757,-22.7297,48.09,68,65,11.48
5391959,San Francisco,US,37.7749,-122.4194,61.65,88,20,5.01
3520994,Puerto Escondido,MX,15.85,-97.0667,84.29,73,99,7.36
934649,Cap Malheureux,MU,-19.9842,57.6142,71.47,76,25,8.01
2738381,Lata,PT,40.1629,-8.3327,80.42,46,75,5.57
1792916,Tianpeng,CN,30.9866,103.9393,73.87,74,88,1.9
330534,Mīzan Teferī,ET,6.9833,35.5833,61.52,97,93,2.33
4021858,Guerrero Negro,MX,27.9769,-114.0611,80.92,63,85,3.2
1637001,Luwuk,ID,-0.9516,122.7875,76.21,88,96,1.63
1235000,Minuwangoda,LK,7.1663,79.9533,82.33,78,75,14.97
2176639,Batemans Bay,AU,-35.7167,150.1833,65.91,46,0,7.34
5983720,Iqaluit,CA,63.7506,-68.5145,40.73,45,75,5.75
5461428,Chaves,US,33.3834,-104.4505,75.61,35,1,3.44
1567681,Son La,VN,21.3167,103.9,70.0,80,1,1.86
4529292,Altus,US,34.6381,-99.334,81.48,38,1,13.8
4012707,Cosalá,MX,24.4125,-106.6908,87.04,39,22,0.94
1529484,Kumul,CN,42.8,93.45,70.66,32,98,9.13
2629833,Husavik,IS,66.0449,-17.3389,49.91,79,100,3.09
5847486,Kailua,US,21.4022,-157.7394,72.57,65,79,11.79
363619,Yei,SS,4.095,30.6779,68.88,91,70,1.23
1489853,Tazovsky,RU,67.4667,78.7,38.14,88,41,7.47
3620680,Bluefields,NI,12.0137,-83.7635,84.27,84,40,4.61
2022304,Khorinsk,RU,52.1657,109.7726,44.1,86,89,3.87
1500933,Labytnangi,RU,66.6572,66.4183,39.85,87,100,1.99
1215502,Banda Aceh,ID,5.5577,95.3222,80.04,80,100,9.28
730478,Kermen,BG,42.5,26.25,78.62,27,20,4.61
2015646,Taldan,RU,53.6667,124.8,43.9,96,76,2.86
359792,Aswān,EG,24.0934,32.907,97.9,15,0,12.66
909299,Lundazi,ZM,-12.2929,33.1782,65.03,51,43,6.98
2012956,Yerbogachën,RU,61.2767,108.0108,43.09,73,99,0.67
5038045,Monticello,US,45.3055,-93.7941,70.92,69,1,11.5
5808079,Redmond,US,47.674,-122.1215,60.71,78,39,3.0
5851349,Nānākuli,US,21.3906,-158.1547,72.93,80,90,6.91
3372760,Praia da Vitória,PT,38.7333,-27.0667,73.65,64,40,23.06
2122104,Petropavlovsk-Kamchatskiy,RU,53.0452,158.6483,28.99,86,0,6.71
2908661,Hauzenberg,DE,48.65,13.6333,71.35,69,87,1.01
2449938,Ténenkou,ML,14.4572,-4.9169,92.66,37,96,6.71
3778045,Maturin,VE,9.75,-63.1767,89.8,51,67,4.74
3664539,Coari,BR,-4.085,-63.1414,92.19,47,17,1.66
1510377,Belyy Yar,RU,53.6039,91.3903,57.09,54,0,6.71
1000543,Graaff-Reinet,ZA,-32.2522,24.5308,87.93,20,2,9.28
4696788,Hays,US,30.0502,-98.0336,82.81,43,0,1.01
303826,Niğde,TR,37.8333,34.75,59.13,47,3,3.67
1267222,Kesinga,IN,20.2,83.2333,77.76,90,99,1.66
1106643,Quatre Cocos,MU,-20.2078,57.7625,71.1,78,20,17.6
3395981,Maceió,BR,-9.6658,-35.7353,87.24,62,40,12.66
2396853,Omboué,GA,-1.5746,9.2618,77.7,79,100,9.46
6539309,Sinnai,IT,39.3042,9.2036,77.94,66,75,6.91
3581194,San Ignacio,BZ,17.1561,-89.0714,82.54,83,0,6.91
3452599,Posse,BR,-14.0931,-46.3694,99.72,12,7,2.59
1263942,Manavālakurichi,IN,8.1333,77.3,82.49,80,100,13.62
2013465,Verkhoyansk,RU,67.5447,133.385,43.7,60,30,3.02
866241,Myskhako,RU,44.6714,37.7433,62.38,75,100,2.24
5924351,Clyde River,CA,70.4692,-68.5914,32.94,80,92,17.9
1650434,Bambanglipuro,ID,-7.95,110.2833,76.5,89,88,11.68
3374333,Praia,CV,14.9215,-23.5087,84.74,65,75,8.05
1848976,Wajima,JP,37.4,136.9,72.09,80,0,7.0
4036284,Alofi,NU,-19.0595,-169.9187,71.49,100,100,6.91
5146711,Beachwood,US,41.4645,-81.5087,74.35,55,1,5.99
2161515,Kiama,AU,-34.6833,150.8667,62.08,49,0,11.63
2374583,Bubaque,GW,11.2833,-15.8333,80.24,79,100,13.53
1516048,Khovd,MN,48.0056,91.6419,55.45,36,0,2.42
986134,Kuruman,ZA,-27.4524,23.4325,73.99,15,0,9.95
2641598,Newport,GB,51.5877,-2.9984,65.17,73,100,11.7
